{
  "store" : [
    {"name" : "카페야그", "address" : "전남 담양군 창평면 의병로 37", "type" : "카페", "longitude" : "35.2308827", "latitude" : "127.0089997"},
    {"name" : "연남물갈비 광주용봉점", "address" : "광주 북구 설죽로217번길 11", "type" : "한식", "longitude" : "35.1790448", "latitude" : "126.8962996"},
    {"name" : "무질서", "address" : "광주 동구 충장로 28-1", "type" : "카페", "longitude" : "35.1513100", "latitude" : "126.9115920"},
    {"name" : "영미오리탕", "address" : "광주 북구 경양로 126", "type" : "한식", "longitude" : "35.1612916", "latitude" : "126.9054753"},
    {"name" : "서플라이 첨단점", "address" : "광주 광산구 임방울대로826번길 47", "type" : "카페", "longitude" : "35.2153065", "latitude" : "126.8492063"},
    {"name" : "아우어베이커리 첨단점", "address" : "광주 광산구 임방울대로826번길 47 1, 2층", "type" : "카페", "longitude" : "35.2153065", "latitude" : "126.8492063"},
    {"name" : "건강식당", "address" : "광주 광산구 사암로92번길 13", "type" : "한식", "longitude" : "35.1526214", "latitude" : "126.8081530"},
    {"name" : "중앙닭갈비 전대점", "address" : "광주 북구 우치로100번길 18", "type" : "한식", "longitude" : "35.1763900", "latitude" : "126.9134615"},
    {"name" : "밤실마을", "address" : "광주 북구 밤실로 163-9", "type" : "한식", "longitude" : "35.1616802", "latitude" : "126.9343399"},
    {"name" : "브레드세븐 상무점", "address" : "광주 서구 상무자유로 179", "type" : "카페", "longitude" : "35.1520127", "latitude" : "126.8538784"},
    {"name" : "더아이론우드", "address" : "광주 광산구 임방울대로826번길 47 더 시너지첨단 307호", "type" : "양식", "longitude" : "35.2153065", "latitude" : "126.8492063"},
    {"name" : "스케치", "address" : "광주 동구 제봉로138번길 9-1", "type" : "카페", "longitude" : "35.1506118", "latitude" : "126.9221415"},
    {"name" : "랑데자뷰 홍대점", "address" : "서울 마포구 와우산로27길 21", "type" : "카페", "longitude" : "37.5541423", "latitude" : "126.9271045"},
    {"name" : "900달러", "address" : "광주 동구 동계천로 103-2", "type" : "양식", "longitude" : "35.1513607", "latitude" : "126.9220631"},
    {"name" : "고등어섬 푸랭이", "address" : "광주 광산구 목련로 84", "type" : "한식", "longitude" : "35.1720714", "latitude" : "126.8068518"},
    {"name" : "빅브로", "address" : "광주 서구 화운로220번길 2", "type" : "카페", "longitude" : "35.1583163", "latitude" : "126.8771312"},
    {"name" : "청자다방 광주여대점", "address" : "광주 광산구 사암로215번길 95", "type" : "카페", "longitude" : "35.1638855", "latitude" : "126.8031272"},
    {"name" : "하남꽃게장백반", "address" : "광주 광산구 산정공원로59번길 10", "type" : "한식", "longitude" : "35.1729228", "latitude" : "126.8056947"},
    {"name" : "오드이븐 다대포점", "address" : "부산 사하구 몰운대2길 1", "type" : "카페", "longitude" : "35.0462496", "latitude" : "128.9689749"},
    {"name" : "티앗", "address" : "광주 동구 동명로14번길 12", "type" : "카페", "longitude" : "35.1500109", "latitude" : "126.9243397"},
    {"name" : "미친고기 하남점", "address" : "광주 광산구 사암로216번길 20-4", "type" : "한식", "longitude" : "35.1631884", "latitude" : "126.8093838"},
    {"name" : "도시", "address" : "광주 동구 제봉로 59", "type" : "카페", "longitude" : "35.1438651", "latitude" : "126.9208983"},
    {"name" : "BLCK", "address" : "광주 남구 백서로 50-1", "type" : "카페", "longitude" : "35.1375759", "latitude" : "126.9138934"},
    {"name" : "브론즈힐507", "address" : "광주 광산구 임방울대로 507", "type" : "카페", "longitude" : "35.2049070", "latitude" : "126.8194620"},
    {"name" : "쟈니덤플링 본관", "address" : "서울 용산구 보광로59길 33", "type" : "중식", "longitude" : "37.5338232", "latitude" : "126.9921256"},
    {"name" : "헤브어트리", "address" : "서울 용산구 두텁바위로 5 1층 103, 103-1호", "type" : "카페", "longitude" : "37.5453405", "latitude" : "126.9727909"},
    {"name" : "다다랩", "address" : "서울 마포구 월드컵로15길 17", "type" : "카페", "longitude" : "37.5561101", "latitude" : "126.9087896"},
    {"name" : "로맨틱뮤지엄", "address" : "광주 동구 동계천로 110 1층", "type" : "카페", "longitude" : "35.1508666", "latitude" : "126.9223057"},
    {"name" : "LA Flora", "address" : "울산 남구 중앙로213번길 8", "type" : "와인", "longitude" : "35.5398782", "latitude" : "129.3110834"},
    {"name" : "오렌지베이킹클럽", "address" : "광주 서구 화개중앙로114번길 23 상가동1층 108호", "type" : "카페", "longitude" : "35.1273295", "latitude" : "126.8541535"}
  ]
}